City_ID,City,Lat,Lng,Max Temp,Humidity,Cloudiness,Wind Speed,Country,Date
0,margaret river,-33.95,115.0667,12.07,72,0,5.58,AU,1741119689
1,adamstown,-25.066,-130.1015,25.56,77,14,6.41,PN,1741119690
2,west island,-12.1568,96.8225,27.99,89,40,4.63,CC,1741119692
3,port-aux-francais,-49.35,70.2167,6.0,76,81,8.22,TF,1741119693
4,bethel,41.3712,-73.414,9.13,64,100,4.12,US,1741119695
5,port mathurin,-19.6833,63.4167,27.7,79,62,8.36,MU,1741119696
6,naze,28.3667,129.4833,15.51,89,100,2.32,JP,1741119697
7,hamilton,39.1834,-84.5333,19.97,28,75,9.77,US,1741119506
8,bocas del toro,9.3333,-82.25,27.28,72,44,3.8,PA,1741119700
9,peniche,39.3558,-9.3811,14.0,92,100,5.44,PT,1741119701
10,lerwick,60.1545,-1.1494,8.52,89,100,10.88,GB,1741119702
11,ushuaia,-54.8,-68.3,7.81,81,75,1.54,AR,1741119495
12,hermanus,-34.4187,19.2345,21.0,89,91,3.46,ZA,1741119704
13,minas de marcona,-15.2119,-75.1103,22.89,58,0,8.69,PE,1741119705
14,thompson,55.7435,-97.8558,-8.91,62,75,2.06,CA,1741119629
15,jiupu,41.0667,122.95,-3.09,83,38,1.78,CN,1741119708
16,saint-philippe,-21.3585,55.7679,26.73,84,34,6.92,RE,1741119709
17,san carlos,9.6612,-68.5827,35.07,32,100,0.9,VE,1741119710
18,kingaroy,-26.5333,151.8333,17.93,77,100,2.22,AU,1741119711
19,ribeira grande,38.5167,-28.7,16.54,88,75,3.6,PT,1741119712
20,grytviken,-54.2811,-36.5092,7.07,74,11,7.03,GS,1741119713
21,gadzhiyevo,69.2551,33.3362,-4.38,97,92,2.59,RU,1741119715
22,papao,-17.75,-149.55,30.82,74,52,5.22,PF,1741119716
23,jamestown,42.097,-79.2353,13.8,22,0,4.12,US,1741119479
24,kilindoni,-7.9139,39.6668,27.75,74,5,5.59,TZ,1741119718
25,yellowknife,62.456,-114.3525,-9.77,95,100,1.03,CA,1741119719
26,tommot,58.9564,126.2925,-32.65,100,100,0.55,RU,1741119720
27,olonkinbyen,70.9221,-8.7187,-1.19,88,100,11.68,SJ,1741119721
28,rio grande,-32.035,-52.0986,28.62,67,0,6.13,BR,1741119624
29,udachny,66.4167,112.4,-40.72,99,41,1.33,RU,1741119724
30,bodo,67.28,14.405,3.02,56,0,8.75,NO,1741119725
31,maraba,-5.3686,-49.1178,30.1,74,40,1.54,BR,1741119726
32,taulaga,-11.0553,-171.0883,27.97,67,99,2.99,AS,1741119727
33,avarua,-21.2078,-159.775,25.03,94,100,2.57,CK,1741119728
34,geraldton,-28.7667,114.6,17.23,77,3,3.6,AU,1741119729
35,vila franca do campo,37.7167,-25.4333,14.23,82,77,1.02,PT,1741119731
36,solleftea,63.1667,17.2667,0.92,88,100,2.09,SE,1741119732
37,vila velha,-20.3297,-40.2925,26.97,78,75,4.12,BR,1741119552
38,ofunato,39.0717,141.7167,0.23,98,100,4.08,JP,1741119734
39,kodinsk,58.6881,99.1844,-14.11,99,98,0.59,RU,1741119735
40,college,64.8569,-147.8028,-3.84,89,20,2.06,US,1741119736
41,puerto natales,-51.7236,-72.4875,11.25,71,100,2.57,CL,1741119737
42,mil'kovo,55.6078,37.7956,3.52,56,100,5.09,RU,1741119740
43,alofi,-19.0595,-169.9187,25.94,89,75,2.06,NU,1741119741
44,taoudenni,22.6783,-3.9836,24.36,32,100,2.89,ML,1741119742
45,cole harbour,44.6724,-63.4751,0.98,58,40,8.23,CA,1741119743
46,miyaly,48.8844,53.7836,-2.33,96,100,8.23,KZ,1741119744
47,puerto santa,-8.9906,-78.6456,25.6,76,42,5.7,PE,1741119745
48,longyearbyen,78.2186,15.6401,-9.09,62,20,9.26,SJ,1741119746
49,port macquarie,-31.4333,152.9167,23.37,88,100,1.79,AU,1741119748
50,coquimbo,-29.9533,-71.3436,19.99,68,0,6.17,CL,1741119480
51,albany,42.6001,-73.9662,8.15,44,100,0.89,US,1741119750
52,carnarvon,-24.8667,113.6333,28.36,57,19,9.2,AU,1741119751
53,haiku-pauwela,20.9219,-156.3051,25.7,72,20,10.28,US,1741119752
54,sankt peter,48.0167,8.0333,4.14,75,7,2.43,DE,1741119753
55,howrah,22.5892,88.3103,25.0,50,6,2.06,IN,1741119754
56,moskovskiy,55.5991,37.355,3.28,93,100,7.0,RU,1741119756
57,iqaluit,63.7506,-68.5145,-20.15,65,100,6.17,CA,1741119485
58,waitangi,-43.9535,-176.5597,13.6,69,100,14.59,NZ,1741119758
59,stanley,54.868,-1.6985,6.01,72,20,7.2,GB,1741119759
60,labrador city,52.9463,-66.9114,-10.05,41,75,4.63,CA,1741119760
61,east london,-33.0153,27.9116,24.74,88,91,1.51,ZA,1741119472
62,puerto quijarro,-17.7833,-57.7667,31.73,49,25,3.33,BO,1741119762
63,tacna,-18.0056,-70.2483,24.11,50,40,5.66,PE,1741119532
64,rongelap,11.1635,166.8941,26.32,81,13,7.67,MH,1741119765
65,siuna,13.7332,-84.7773,29.36,57,100,2.64,NI,1741119766
66,ciamis,-7.3257,108.3534,22.67,97,79,1.04,ID,1741119579
67,abalak,58.1286,68.5944,-11.87,98,100,2.53,RU,1741119768
68,nemuro,43.3236,145.575,-4.88,63,100,0.93,JP,1741119769
69,embi,48.8264,58.1442,-6.41,95,100,5.95,KZ,1741119770
70,nadym,65.5333,72.5167,-6.77,96,96,4.44,RU,1741119771
71,diego de almagro,-26.3667,-70.05,27.28,20,0,6.01,CL,1741119773
72,mar del plata,-38.0023,-57.5575,23.86,85,0,2.57,AR,1741119650
73,port elizabeth,-33.918,25.5701,20.73,95,0,4.12,ZA,1741119775
74,nar'yan-mar,67.6713,53.087,-4.61,86,100,4.91,RU,1741119776
75,punta arenas,-53.15,-70.9167,9.06,87,40,6.17,CL,1741119693
76,bilibino,68.0546,166.4372,-33.94,96,30,0.72,RU,1741119779
77,oulad teima,30.3947,-9.209,15.6,77,4,4.72,MA,1741119781
78,vorgashor,67.5833,63.95,-17.81,98,99,1.84,RU,1741119664
79,woodward,36.4337,-99.3904,6.65,81,100,15.43,US,1741119785
80,sarmiento,-45.5882,-69.07,20.12,22,2,18.86,AR,1741119786
81,belo sur tsiribihina,-19.7,44.55,24.62,82,5,0.07,MG,1741119787
82,brazzaville,-4.2658,15.2832,28.18,64,96,0.98,CG,1741119788
83,chui,-33.6971,-53.4616,31.69,56,0,5.0,UY,1741119790
84,hami,42.8,93.45,3.44,38,100,4.29,CN,1741119583
85,greenville,35.6127,-77.3663,20.08,47,75,6.17,US,1741119733
86,blackmans bay,-43.0167,147.3167,15.07,79,0,3.46,AU,1741119793
87,thurgoona,-36.0451,146.9919,18.14,65,0,0.45,AU,1741119794
88,mo i rana,66.3128,14.1428,1.26,69,40,6.17,NO,1741119795
89,noumea,-22.2763,166.4572,28.33,99,85,0.49,NC,1741119796
90,edinburgh of the seven seas,-37.0676,-12.3116,13.77,62,28,4.72,SH,1741119798
91,badger,64.8,-147.5333,-3.89,88,20,2.06,US,1741119799
92,sitka,57.0531,-135.33,8.94,53,40,5.14,US,1741119595
93,mokhsogollokh,61.4681,128.9203,-26.87,94,100,3.12,RU,1741119801
94,lubango,-14.9172,13.4925,17.17,86,98,1.14,AO,1741119802
95,aasiaat,68.7098,-52.8699,-25.43,96,88,1.68,GL,1741119803
96,invercargill,-46.4,168.35,8.34,93,1,1.62,NZ,1741119804
97,paita,-5.0892,-81.1144,28.67,63,48,6.78,PE,1741119805
98,tikhvin,59.6451,33.5294,-0.18,91,100,5.09,RU,1741119807
99,atafu village,-8.5421,-172.5159,27.93,70,100,4.36,TK,1741119808
100,la libertad,-2.2333,-80.9,29.81,74,40,3.6,EC,1741119809
101,kailua-kona,19.6406,-155.9956,26.98,72,20,4.63,US,1741119810
102,mont-dore,-22.2833,166.5833,28.33,99,89,0.78,NC,1741119811
103,pitimbu,-7.4706,-34.8086,27.64,68,96,4.86,BR,1741119812
104,wanning,18.8003,110.3967,22.48,97,38,3.56,CN,1741119814
105,tofol,5.3248,163.0078,28.17,71,79,8.87,FM,1741119815
106,ilulissat,69.2167,-51.1,-13.99,66,75,5.66,GL,1741119816
107,terrace,54.5163,-128.6035,5.95,65,75,8.23,CA,1741119667
108,winkler,49.1817,-97.941,-3.9,74,100,6.69,CA,1741119818
109,buon ma thuot,12.6667,108.05,21.13,83,84,1.37,VN,1741119819
110,yeppoon,-23.1333,150.7333,23.18,86,24,1.57,AU,1741119822
111,inverloch,-38.6333,145.7167,17.01,71,0,2.52,AU,1741119823
112,kodiak,57.79,-152.4072,3.73,93,100,7.2,US,1741119824
113,masterton,-40.9597,175.6575,10.92,87,99,5.84,NZ,1741119825
114,arkhangel'sk,64.5401,40.5433,0.06,93,75,4.0,RU,1741119826
115,dudinka,69.4058,86.1778,-16.75,96,100,4.69,RU,1741119827
116,whitehorse,60.7161,-135.0538,0.05,74,20,2.06,CA,1741119828
117,yangjiang,21.85,111.9667,21.41,75,100,3.99,CN,1741119830
118,vrontados,38.4089,26.1328,10.92,66,0,10.29,GR,1741119831
119,egilsstadir,65.2653,-14.3948,-0.05,59,20,5.14,IS,1741119832
120,richland,40.7834,-82.5499,15.94,27,100,7.2,US,1741119833
121,yanam,16.7333,82.2167,21.47,96,100,0.73,IN,1741119834
122,kievka,50.2619,71.5514,-15.12,93,83,5.63,KZ,1741119835
123,bopolu,7.0667,-10.4875,26.05,54,47,2.8,LR,1741119836
124,anadyr,64.75,177.4833,-28.72,76,0,5.0,RU,1741119838
125,codrington,-38.2667,141.9667,15.11,64,0,1.63,AU,1741119839
126,constantia,44.1833,28.65,1.38,72,0,3.25,RO,1741119840
127,nieuw amsterdam,5.8833,-55.0833,27.68,69,43,5.04,SR,1741119841
128,lihue,21.9789,-159.3672,26.77,65,20,8.75,US,1741119842
129,weno,7.4515,151.8468,26.97,89,100,3.09,FM,1741119843
130,fruita,39.1589,-108.729,11.64,49,40,5.66,US,1741119656
131,makary,12.5717,14.4666,28.12,32,5,4.08,CM,1741119845
132,at taj,24.2049,23.2857,15.94,32,65,4.71,LY,1741119847
133,petropavlovsk-kamchatsky,53.0452,158.6483,-5.67,63,75,3.0,RU,1741119848
134,bredasdorp,-34.5322,20.0403,21.59,86,79,2.87,ZA,1741119849
135,chonchi,-42.6128,-73.8092,18.95,50,86,3.38,CL,1741119850
136,gerash,27.6652,54.1371,14.08,52,100,1.7,IR,1741119848
137,talnakh,69.4865,88.3972,-19.92,97,100,3.87,RU,1741119852
138,ubari,26.5921,12.7805,17.73,29,100,3.91,LY,1741119854
139,lorengau,-2.0226,147.2712,28.16,77,99,5.55,PG,1741119855
140,plyeshchanitsy,54.4222,27.8331,2.67,85,100,7.69,BY,1741119857
141,quang ngai,15.1167,108.8,22.88,95,67,0.63,VN,1741119859
142,tiksi,71.6872,128.8694,-32.66,100,85,1.59,RU,1741119860
143,mabaruma,8.2,-59.7833,27.88,68,66,3.14,GY,1741119862
144,carutapera,-1.195,-46.02,25.09,93,100,3.78,BR,1741119863
145,urengoy,65.9667,78.3667,-12.82,97,95,3.27,RU,1741119864
146,rivne,50.6231,26.2274,5.04,67,96,8.08,UA,1741119865
147,ploudalmezeau,48.5333,-4.65,7.27,79,0,2.57,FR,1741119866
148,nadi,-17.8,177.4167,27.0,78,40,0.0,FJ,1741119867
149,tazovsky,67.4667,78.7,-12.16,96,100,3.36,RU,1741119868
150,hawaiian paradise park,19.5933,-154.9731,23.28,94,100,0.89,US,1741119870
151,fort stockton,30.894,-102.8793,19.03,18,100,11.83,US,1741119871
152,dubbo,-32.25,148.6167,16.07,82,0,4.12,AU,1741119872
153,uturoa,-16.7333,-151.4333,28.33,72,47,4.69,PF,1741119873
154,lebu,-37.6167,-73.65,18.79,78,1,3.45,CL,1741119859
155,kingston,17.997,-76.7936,28.42,72,7,1.96,JM,1741119793
156,ta`u,-14.2336,-169.5144,26.74,77,71,2.48,AS,1741119876
157,richards bay,-28.783,32.0377,24.06,87,66,2.86,ZA,1741119877
158,antalya,36.7741,30.7178,12.83,60,0,5.14,TR,1741119779
159,aras-asan,8.8908,126.3033,24.31,92,80,1.36,PH,1741119880
160,kalymnos,36.95,26.9833,14.74,62,40,2.57,GR,1741119881
161,dibba al-hisn,25.6196,56.2729,20.3,79,99,2.61,AE,1741119882
162,ban karon,7.8477,98.2985,26.95,84,96,4.76,TH,1741119883
163,souillac,-20.5167,57.5167,27.21,83,40,4.12,MU,1741119884
164,as sulayyil,20.4607,45.5779,23.1,25,99,5.23,SA,1741119886
165,kisangani,0.5167,25.2,27.21,57,93,0.15,CD,1741119888
166,tazacorte,28.629,-17.9293,16.54,80,20,5.66,ES,1741119889
167,hasaki,35.7333,140.8333,11.73,84,100,9.31,JP,1741119890
168,new norfolk,-42.7826,147.0587,9.5,96,1,1.49,AU,1741119891
169,sakakah,29.9697,40.2064,13.76,67,69,7.72,SA,1741119892
170,ancud,-41.8697,-73.8203,14.97,68,90,3.42,CL,1741119893
171,soderhamn,61.3037,17.0592,2.8,88,100,4.4,SE,1741119895
172,calama,-22.4667,-68.9333,23.27,33,0,10.8,CL,1741119847
173,dawei,14.0833,98.2,21.62,90,12,1.5,MM,1741119897
174,san jose de guanipa,8.8872,-64.1651,35.51,27,71,3.82,VE,1741119898
175,phrae,18.0833,100.0,24.47,59,65,0.59,TH,1741119899
176,iskateley,67.6803,53.1512,-4.64,87,100,4.86,RU,1741119663
177,orsa,54.5153,30.4053,2.6,83,100,10.32,BY,1741119901
178,karaton,-6.3424,106.1045,22.51,100,99,1.42,ID,1741119905
179,general conesa,-40.1,-64.4333,32.79,25,92,7.65,AR,1741119907
180,vanino,49.0869,140.2543,-21.31,92,14,2.21,RU,1741119908
181,fale old settlement,-9.3852,-171.2468,27.91,71,100,4.1,TK,1741119910
182,lively,46.4334,-81.1498,1.68,96,100,0.94,CA,1741119911
183,ust-nera,64.5667,143.2,-25.93,98,100,2.88,RU,1741119912
184,sao gabriel da cachoeira,-0.1303,-67.0892,28.28,75,100,0.93,BR,1741119914
185,papatowai,-46.5619,169.4708,9.69,59,11,0.72,NZ,1741119915
186,ghadamis,30.1337,9.5007,20.31,25,59,4.28,LY,1741119916
187,mirabad,30.4362,61.8383,12.36,16,100,2.22,AF,1741119918
188,poronaysk,49.2167,143.1167,-23.24,100,37,0.93,RU,1741119919
189,praia da vitoria,38.7333,-27.0667,17.14,82,40,3.07,PT,1741119920
190,tura,25.5198,90.2201,17.65,27,0,2.29,IN,1741119921
191,kasongo-lunda,-6.4667,16.8167,23.21,84,82,1.03,CD,1741119922
192,pitea,65.3172,21.4794,-3.08,87,100,2.1,SE,1741119923
193,shagonar,51.5333,92.8,-17.93,95,100,0.66,RU,1741119664
194,wailua homesteads,22.0669,-159.378,26.44,74,20,8.75,US,1741119925
195,sao vicente,-23.9631,-46.3919,28.98,36,0,5.81,BR,1741119631
196,keflavik,64.0049,-22.5624,0.24,100,100,6.17,IS,1741119929
197,anyang-si,37.3925,126.9269,3.66,65,75,0.51,KR,1741119931
198,ola,59.5833,151.2833,-18.38,96,100,4.24,RU,1741119932
199,kunduz,36.75,68.75,0.82,79,15,1.7,AF,1741119934
200,malvan,16.0667,73.4667,26.59,52,0,2.38,IN,1741119935
201,qaqortoq,60.7167,-46.0333,-17.15,72,0,2.0,GL,1741119936
202,acarau,-2.8856,-40.12,25.86,87,95,5.43,BR,1741119937
203,bhamo,24.2667,97.2333,16.48,44,0,0.46,MM,1741119938
204,gdov,58.7406,27.8122,-0.88,92,72,5.14,RU,1741119939
205,st. john's,47.5649,-52.7093,-5.02,63,75,8.23,CA,1741119651
206,ambon,-3.6954,128.1814,29.57,100,100,0.68,ID,1741119942
207,banket,-17.3833,30.4,18.1,96,35,2.05,ZW,1741119948
208,owen sound,44.5672,-80.9435,5.54,84,100,1.34,CA,1741119949
209,saint-laurent-du-var,43.671,7.1761,11.54,65,0,3.6,FR,1741119950
210,fedorovka,53.6314,62.7078,-9.66,93,100,5.13,KZ,1741119952
211,ain leuh,33.2921,-5.3384,8.87,87,68,1.54,MA,1741119954
212,villa emilio carranza,19.9667,-96.6,29.81,63,57,2.87,MX,1741119955
213,hualien city,23.9769,121.6044,19.62,99,99,5.02,TW,1741119956
214,formosa,-26.1775,-58.1781,39.99,36,75,2.06,AR,1741119958
215,polyarnyy,69.1989,33.4478,-4.67,96,90,2.8,RU,1741119960
216,neiafu,-18.65,-173.9833,26.38,89,75,4.12,TO,1741119962
217,yuxia,34.0615,108.6291,3.88,90,100,0.26,CN,1741119963
218,namtsy,62.7161,129.6658,-27.61,93,100,3.17,RU,1741119964
219,cidreira,-30.1811,-50.2056,26.61,79,0,7.0,BR,1741119965
220,manavalakurichi,8.1333,77.3,26.03,91,100,1.12,IN,1741119967
221,thames,-37.1333,175.5333,15.25,83,4,3.07,NZ,1741119968
222,kurumkan,54.3,110.3,-16.83,92,75,1.99,RU,1741119969
223,pittsburg,38.028,-121.8847,13.98,74,100,2.06,US,1741119970
224,saipan,15.1355,145.701,27.39,78,20,6.69,MP,1741119972
225,camamu,-13.9447,-39.1039,24.57,88,37,3.21,BR,1741119973
226,los altos,37.3852,-122.1141,14.78,64,100,3.6,US,1741119974
227,selkirk,50.1436,-96.8845,-4.34,76,100,5.81,CA,1741119758
228,isafjordur,66.0755,-23.124,-5.81,85,97,8.27,IS,1741119977
229,yuzhno-kurilsk,44.0306,145.8556,-7.36,74,100,0.83,RU,1741119978
230,berbera,10.4396,45.0143,24.84,83,8,3.72,SO,1741119979
231,gallipoli,40.4103,26.6708,5.56,76,0,7.73,TR,1741119980
232,tabas,33.5959,56.9244,12.12,16,100,2.06,IR,1741119981
233,susuman,62.7833,148.1667,-27.31,98,100,1.61,RU,1741119982
234,happy valley-goose bay,53.3168,-60.3315,-8.83,53,75,5.14,CA,1741119983
235,argo,37.6333,22.7333,6.52,71,4,2.62,GR,1741119984
236,meleuz,52.9667,55.9167,-8.03,93,96,5.31,RU,1741119986
237,san patricio,28.017,-97.5169,30.97,13,0,13.34,US,1741119988
238,afaahiti,-17.75,-149.2833,26.57,77,21,4.93,PF,1741119989
239,berdigestyakh,62.0989,126.6992,-29.37,96,100,2.93,RU,1741119990
240,hotan,37.0997,79.9269,2.67,61,96,1.71,CN,1741119991
241,pestovo,58.5938,35.8024,-0.94,94,98,4.39,RU,1741119992
242,irtyshsk,53.3333,75.4572,-20.05,93,16,2.89,KZ,1741119993
243,fisterra,42.9049,-9.2629,13.16,85,15,8.42,ES,1741119994
244,bamboo flat,11.7,92.7167,24.05,94,50,1.03,IN,1741119996
245,taibet,33.0829,6.3998,15.88,59,100,2.87,DZ,1741119997
246,mount gambier,-37.8333,140.7667,13.3,58,0,0.52,AU,1741119723
247,chernyshevskiy,63.0128,112.4714,-43.25,100,86,0.49,RU,1741119999
248,inhambane,-23.865,35.3833,25.03,89,4,3.76,MZ,1741120000
249,itoman,26.1247,127.6694,19.21,94,100,4.63,JP,1741120001
250,howard springs,-12.497,131.047,26.95,100,5,1.31,AU,1741120002
251,ebon,4.582,168.6964,27.97,75,68,7.86,MH,1741120004
252,yanchep,-31.55,115.6833,18.09,55,92,7.36,AU,1741120005
253,herval,-32.0236,-53.3956,36.05,31,21,5.78,BR,1741120006
254,luwuk,-0.9516,122.7875,22.79,89,33,1.07,ID,1741120007
255,ghanzi,-21.5667,21.7833,25.18,59,91,2.45,BW,1741120008
256,puerto ayora,-0.7393,-90.3518,28.08,88,97,3.13,EC,1741120009
257,filey,54.21,-0.2892,7.25,53,6,3.58,GB,1741120010
258,qalyub,30.1792,31.2056,16.44,63,5,4.09,EG,1741120012
259,holualoa,19.6228,-155.9522,24.91,72,20,4.63,US,1741120013
260,georgetown,5.4112,100.3354,28.96,78,20,1.54,MY,1741120014
261,strathmore,51.0501,-113.3852,1.38,68,46,5.75,CA,1741120015
262,porto de moz,-1.7483,-52.2383,26.9,92,99,1.84,BR,1741120016
263,toamasina,-18.1667,49.3833,27.0,89,40,2.06,MG,1741120017
264,luanda,-8.8368,13.2343,27.0,83,40,4.63,AO,1741119817
265,cova figueira,14.8905,-24.2934,15.05,68,98,4.69,CV,1741120019
266,mossel bay,-34.1831,22.146,21.14,92,48,3.22,ZA,1741120021
267,shetpe,44.1667,52.1167,-0.7,95,94,4.25,KZ,1741120022
268,grand-bassam,5.2118,-3.7388,27.98,84,100,4.22,CI,1741120023
269,fort bragg,35.139,-79.006,21.57,44,75,4.12,US,1741120024
270,callao,-12.0667,-77.15,25.16,69,0,4.63,PE,1741119762
271,robore,-18.3333,-59.75,28.05,78,40,0.0,BO,1741120026
272,nouadhibou,20.931,-17.0347,18.99,77,54,5.14,MR,1741120027
273,kununurra,-15.7667,128.7333,26.99,89,30,1.54,AU,1741120028
274,villa luvianos,18.9167,-100.4,31.58,13,26,2.85,MX,1741120030
275,tolanaro,-25.0319,46.9987,26.04,94,75,2.06,MG,1741120031
276,aliveri,38.4167,24.0333,9.12,63,54,7.39,GR,1741120032
277,belomorsk,64.5232,34.7668,-3.51,97,81,2.82,RU,1741120032
278,revelstoke,50.9832,-118.2023,6.01,65,0,2.06,CA,1741120034
279,kingscliff,-28.2667,153.5667,23.89,73,75,10.8,AU,1741120035
280,asau,46.4333,26.4,1.96,78,0,3.35,RO,1741120036
281,lompoc,34.6391,-120.4579,18.41,62,0,3.6,US,1741120038
282,timbuktu,16.7735,-3.0074,32.91,14,11,3.42,ML,1741120039
283,klyuchi,52.2667,79.1667,-8.16,96,100,2.95,RU,1741120040
284,anicuns,-16.4611,-49.9617,27.28,67,100,1.75,BR,1741120001
285,harstad,68.799,16.5293,0.23,83,98,0.89,NO,1741120043
286,newcastle,-32.9272,151.7765,23.17,84,20,5.66,AU,1741119769
287,almyros,39.1822,22.7594,4.73,81,0,2.06,GR,1741120022
288,shiguai,40.7058,110.2856,-1.08,87,82,2.26,CN,1741120047
289,chamba,32.5667,76.1333,5.09,68,0,5.47,IN,1741120048
290,tromso,69.6496,18.957,1.01,93,75,1.54,NO,1741120049
291,hadibu,12.65,54.0333,25.11,75,34,4.81,YE,1741120050
292,ciudad bolivar,8.1222,-63.5497,37.82,25,34,1.09,VE,1741120052
293,ilebo,-4.3167,20.5833,24.08,85,52,0.68,CD,1741120053
294,awjilah,29.1081,21.2869,16.84,42,13,3.36,LY,1741120055
295,san antonio de pale,-1.4014,5.6325,27.79,71,100,2.44,GQ,1741120056
296,glace bay,46.1969,-59.957,-2.23,51,20,3.13,CA,1741120057
297,loudi,27.7344,111.9944,3.38,87,98,1.27,CN,1741120058
298,kentau,43.5206,68.5094,-1.48,65,100,3.13,KZ,1741120059
299,greenwood,34.1668,-82.1165,20.46,58,75,5.14,US,1741120060
300,khovd,48.0056,91.6419,-14.69,100,100,0.76,MN,1741120061
301,axim,4.8699,-2.2405,27.25,85,100,4.43,GH,1741120064
302,lathi,21.7167,71.3833,21.39,13,0,5.26,IN,1741120065
303,port lincoln,-34.7333,135.8667,19.28,81,0,7.97,AU,1741120066
304,utrik,11.2278,169.8474,26.74,78,4,8.59,MH,1741120067
305,nova vicosa,-17.8919,-39.3719,27.21,71,1,3.56,BR,1741120068
306,dunedin,-45.8742,170.5036,10.45,82,35,0.89,NZ,1741120069
307,cockermouth,54.6621,-3.3609,7.01,95,100,6.71,GB,1741120070
308,puerto aysen,-45.4,-72.7,10.0,96,100,3.0,CL,1741120072
309,champerico,14.3,-91.9167,30.21,57,59,7.31,GT,1741120073
310,magadan,59.5667,150.8,-17.37,96,100,3.37,RU,1741120074
311,griffith,41.5284,-87.4237,6.92,76,100,2.57,US,1741120075
312,sidney,-33.8679,151.2073,20.61,84,75,5.66,AU,1741119793
313,padre bernardo,-15.35,-48.5,30.1,41,100,2.2,BR,1741120077
314,nchelenge,-9.3451,28.734,22.51,84,4,2.0,ZM,1741120078
315,saldanha,-33.0117,17.9442,18.39,93,0,7.84,ZA,1741120079
316,ujae,8.9322,165.7642,27.41,72,67,8.81,MH,1741120081
317,orcopampa,-15.2661,-72.3417,11.8,75,100,2.34,PE,1741120082
318,beyneu,45.3167,55.2,-6.9,89,24,4.34,KZ,1741120083
319,prince rupert,54.3161,-130.3201,8.05,77,100,2.57,CA,1741120084
320,chulakkurgan,43.765,69.1814,-5.09,75,100,1.32,KZ,1741120085
321,lau,9.2167,11.2833,31.76,15,16,1.32,NG,1741120086
322,fuxin,42.0156,121.6589,-2.54,45,16,0.67,CN,1741119820
323,xam nua,20.4197,104.0439,17.48,42,90,1.59,LA,1741120088
324,val-d'or,48.1002,-77.7828,0.05,86,100,3.6,CA,1741120090
325,alice springs,-23.7,133.8833,21.75,28,0,0.0,AU,1741120091
326,kapuskasing,49.4169,-82.4331,-0.95,80,100,4.12,CA,1741120081
327,turan,16.0678,108.2208,24.99,94,0,0.51,VN,1741120093
328,sandnessjoen,66.0217,12.6316,1.06,86,100,3.6,NO,1741120094
329,hammerfest,70.6634,23.6821,-1.75,86,40,1.54,NO,1741120095
330,sulak,43.2734,47.5146,2.16,74,5,1.75,RU,1741120096
331,boise,43.6135,-116.2035,11.41,50,20,1.54,US,1741120075
332,bubaque,11.2833,-15.8333,23.43,73,75,10.49,GW,1741120099
333,north platte,41.1239,-100.7654,1.94,81,100,15.95,US,1741120100
334,banda aceh,5.5577,95.3222,26.34,82,93,2.38,ID,1741120101
335,buka,40.8108,69.1986,1.01,58,100,1.48,UZ,1741120102
336,tsiombe,-25.3,45.4833,23.77,92,99,1.19,MG,1741120103
337,puerto cabezas,14.0351,-83.3888,29.98,84,40,3.09,NI,1741120104
338,manacapuru,-3.2997,-60.6206,24.74,92,100,2.64,BR,1741120106
339,kurmuk,10.55,34.2833,29.45,18,54,1.29,SD,1741120107
340,fada,7.25,4.0667,27.07,75,100,2.76,NG,1741120108
341,shirgaon,19.7,72.7,24.81,48,0,6.2,IN,1741120110
342,porto novo,6.4965,2.6036,29.9,78,100,4.68,BJ,1741120111
343,tokonou,9.65,-9.7833,31.59,20,77,2.01,GN,1741120112
344,bundaberg,-24.85,152.35,19.86,94,2,3.02,AU,1741120113
345,coahuayana de hidalgo,18.7,-103.6583,31.43,44,0,3.94,MX,1741120114
346,shanhecun,44.7,127.2,-6.51,81,100,1.49,CN,1741120115
347,sao jose da coroa grande,-8.8978,-35.1478,27.45,69,26,4.36,BR,1741120116
348,zeya,53.75,127.2667,-22.49,94,19,1.99,RU,1741119866
349,alaghsas,17.0187,8.0168,26.94,9,89,6.94,NE,1741120119
350,vargashi,55.3556,65.8467,-11.44,95,99,3.9,RU,1741120120
351,surgut,61.25,73.4167,-6.9,63,0,2.0,RU,1741120121
352,mount pearl,47.5166,-52.7813,-5.48,63,75,8.23,CA,1741119898
353,otradnoye,59.7775,30.8181,1.1,87,86,4.75,RU,1741120123
354,amungan,15.3652,119.9582,26.39,74,100,1.32,PH,1741120124
355,aykhal,66.0,111.5,-37.44,97,5,1.99,RU,1741120125
356,ceeldheer,3.8488,47.1806,25.61,80,6,8.44,SO,1741120126
357,vychegodskiy,61.247,46.8984,-2.12,91,100,4.04,RU,1741120128
358,mount isa,-20.7333,139.5,21.87,60,0,1.54,AU,1741120129
359,oriximina,-1.7656,-55.8661,28.92,69,98,1.9,BR,1741120130
360,sao joao da barra,-21.6403,-41.0511,29.05,74,0,4.27,BR,1741120131
361,shimanovsk,52.0,127.7,-20.93,100,100,1.96,RU,1741120132
362,kremenets,50.0969,25.7246,4.69,61,100,7.72,UA,1741120133
363,impfondo,1.6381,18.0667,26.53,50,12,0.06,CG,1741120136
364,coronel dorrego,-38.7187,-61.2873,26.78,65,100,7.93,AR,1741120137
365,kargasok,59.0556,80.8572,-5.5,97,100,2.82,RU,1741120138
366,colonia,50.9333,6.95,7.2,64,0,2.57,DE,1741120139
367,sabirabad,40.0095,48.4752,4.41,74,37,3.7,AZ,1741120140
368,duong dong,10.2167,103.9667,25.0,88,20,0.51,VN,1741120141
369,guerrero negro,27.9769,-114.0611,19.51,36,23,2.82,MX,1741120144
370,north bend,43.4065,-124.2243,13.48,76,20,6.17,US,1741120145
371,brookings,44.3114,-96.7984,-1.01,86,100,12.35,US,1741120146
372,ryotsu-minato,38.0833,138.4333,3.34,88,100,4.62,JP,1741120147
373,valparaiso,-33.0393,-71.6273,28.8,35,0,9.26,CL,1741120015
374,vadso,70.0744,29.7487,-0.91,93,75,3.09,NO,1741120149
375,arraial do cabo,-22.9661,-42.0278,28.98,70,40,7.72,BR,1741120150
376,ulladulla,-35.35,150.4667,15.6,83,13,2.44,AU,1741120152
377,alo,6.5486,4.2686,27.53,81,70,3.76,NG,1741120153
378,mukalla,14.5425,49.1242,23.04,71,0,3.25,YE,1741120154
379,kayes,14.0,-11.0,31.41,19,2,3.01,ML,1741120155
380,bardai,11.65,7.2333,28.14,15,80,4.33,NG,1741120156
381,pangody,65.85,74.4859,-11.63,98,92,3.39,RU,1741120157
382,horsham,51.064,-0.3272,5.06,74,0,1.03,GB,1741120158
383,broken hill,-31.95,141.4333,23.56,35,0,4.15,AU,1741120161
384,corinto,37.9407,22.9573,8.27,66,7,4.32,GR,1741120162
385,newport,51.5877,-2.9984,6.41,80,0,3.1,GB,1741119965
386,illizi,26.4833,8.4667,22.59,15,100,4.71,DZ,1741120164
387,sechura,-5.5569,-80.8222,30.04,58,69,7.25,PE,1741120165
388,waingapu,-9.6567,120.2641,25.72,83,62,2.44,ID,1741120166
389,portland,45.5234,-122.6762,11.33,89,75,6.71,US,1741120168
390,zuunmod,47.7069,106.9528,-21.43,99,44,0.92,MN,1741120170
391,darwin,-12.4611,130.8418,26.99,94,6,2.06,AU,1741120171
392,enewetak,11.3474,162.3373,26.97,77,17,9.0,MH,1741120172
393,vigan,17.5747,120.3869,26.39,76,93,1.98,PH,1741120173
394,ishqoshim,36.7248,71.6133,-19.2,35,0,1.87,TJ,1741120175
395,ambovombe,-25.1667,46.0833,23.78,90,100,1.38,MG,1741120176
396,aranda de duero,41.6704,-3.6892,8.47,81,100,7.17,ES,1741120178
397,prince albert,53.2001,-105.7677,1.97,60,75,6.17,CA,1741120179
398,al mijlad,11.0333,27.7333,28.45,14,2,5.67,SD,1741120180
399,manokwari,-0.8667,134.0833,25.89,76,100,1.59,ID,1741120181
400,urcos,-13.6861,-71.6228,12.38,77,100,1.38,PE,1741120182
401,alta,69.9689,23.2717,-2.41,85,75,1.54,NO,1741120143
402,quelimane,-17.8786,36.8883,27.97,83,40,1.54,MZ,1741120184
403,mili,6.0815,171.735,27.13,78,5,9.35,MH,1741120185
404,gisborne,-38.6533,178.0042,16.44,68,96,9.45,NZ,1741120187
405,bandon,51.7469,-8.7425,7.77,77,98,5.81,IE,1741120188
406,aswan,24.0934,32.907,19.02,29,0,5.1,EG,1741120189
407,kaa-khem,51.6833,94.7333,-16.99,92,99,1.6,RU,1741120190
408,lata,40.1629,-8.3327,10.17,89,20,1.93,PT,1741120191
409,crane,31.3974,-102.3501,19.8,16,1,12.89,US,1741120192
410,nema,57.5067,50.5011,-4.71,95,100,4.45,RU,1741120194
411,okha,53.5739,142.9478,-25.01,95,48,2.99,RU,1741120195
412,eyl,7.9803,49.8164,25.62,69,2,6.25,SO,1741120196
413,ghat,24.9647,10.1728,21.41,18,100,0.48,LY,1741120197
414,rutland,43.6167,-73.0162,5.22,43,75,3.09,US,1741120198
415,tanjung pinang,0.9167,104.45,26.07,85,100,1.68,ID,1741120199
416,gargalianoi,37.0667,21.6333,7.31,59,3,2.57,GR,1741120201
417,ban chang,12.7254,101.0553,27.49,94,20,4.63,TH,1741120202
418,klaksvik,62.2266,-6.589,5.64,69,100,13.92,FO,1741120203
419,bang khla,13.7214,101.2081,26.27,76,47,1.8,TH,1741120204
420,khorixas,-20.3667,14.9667,22.27,65,89,2.8,NA,1741120205
421,tabou,4.423,-7.3528,26.87,88,100,4.14,CI,1741120206
422,lugovoye,42.9094,72.7178,-5.01,69,31,2.69,KZ,1741120208
423,nanning,22.8167,108.3167,15.25,74,100,2.3,CN,1741120209
424,port hedland,-20.3167,118.5667,30.03,89,20,3.09,AU,1741120210
425,novaya igirma,57.1334,103.9112,-9.19,98,100,0.84,RU,1741120211
426,barmer,25.75,71.3833,13.85,12,0,3.95,IN,1741120212
427,ataq,14.5377,46.8319,17.41,36,0,5.43,YE,1741120213
428,bochum,51.4833,7.2167,7.75,66,0,2.11,DE,1741120214
429,puerto baquerizo moreno,-0.9,-89.6,29.55,70,40,2.57,EC,1741120216
430,dangriga,16.9692,-88.2321,26.68,73,1,4.64,BZ,1741120165
431,la passe,45.5549,-0.8967,9.79,80,71,3.62,FR,1741120219
432,qamdo,31.1667,97.2333,-2.75,58,16,2.54,CN,1741120221
433,usogorsk,63.4106,48.6872,-4.39,93,100,4.24,RU,1741120222
434,afega,-13.7973,-171.8531,27.0,88,75,3.09,WS,1741120223
435,banavar,13.4136,76.1683,23.01,35,100,1.78,IN,1741120224
436,brisas de zicatela,15.8369,-97.0419,31.29,70,40,5.66,MX,1741120225
437,sorong,-0.8833,131.25,27.05,84,100,3.37,ID,1741120209
438,rabaul,-4.1967,152.1721,26.63,78,100,1.03,PG,1741120227
439,san luis de la loma,17.2706,-100.8939,28.97,54,3,4.32,MX,1741120229
440,mejit,10.2753,170.8646,26.97,78,10,9.28,MH,1741120230
441,gardez,33.5974,69.2259,-9.98,44,3,1.84,AF,1741120231
442,sisimiut,66.9395,-53.6735,-19.86,90,100,1.21,GL,1741120232
443,diebougou,10.9667,-3.25,35.17,22,76,1.16,BF,1741120233
444,malpe,13.35,74.7167,25.38,92,100,3.06,IN,1741120234
445,al bawiti,28.3492,28.8659,13.89,56,44,3.73,EG,1741120235
446,motueka,-41.1333,173.0167,15.76,47,4,3.56,NZ,1741120236
447,christchurch,-43.5333,172.6333,10.53,84,75,4.12,NZ,1741120238
448,quellon,-43.1167,-73.6167,15.28,57,100,2.45,CL,1741120239
449,faya-largeau,17.9257,19.1043,24.59,11,3,6.8,TD,1741120240
450,mezhdurechenskiy,59.6,65.9333,-5.82,94,100,3.35,RU,1741120241
451,tra mhor,52.1624,-7.1524,8.38,79,75,8.23,IE,1741120242
452,tuzha,57.6062,47.936,-3.74,94,100,5.09,RU,1741120243
453,kavieng,-2.5744,150.7967,28.46,75,100,7.2,PG,1741120244
454,dapa,9.7594,126.0531,25.73,88,82,2.42,PH,1741120245
455,eenhana,-17.4667,16.3333,20.98,88,100,2.31,NA,1741120247
456,yuncheng,35.0231,110.9928,3.28,72,100,1.31,CN,1741120249
457,pervomayskoye,43.919,46.7102,-0.49,90,7,2.98,RU,1741120250
458,novodvinsk,64.4165,40.8122,-0.14,98,99,2.28,RU,1741120251
459,igarka,67.4667,86.5833,-13.63,96,100,4.65,RU,1741120252
460,ajman city,25.4111,55.435,23.02,60,0,3.6,AE,1741120253
461,sydney,-33.8679,151.2073,20.61,84,75,5.66,AU,1741120154
462,kangding,30.0513,101.9603,1.61,93,97,2.05,CN,1741120256
463,caleta de carquin,-11.0925,-77.6267,25.27,74,100,5.3,PE,1741120257
464,alappuzha,9.49,76.3264,25.68,88,100,2.27,IN,1741120258
465,kristiansund,63.1115,7.732,8.4,87,75,14.4,NO,1741120259
466,suoyarvi,62.0833,32.35,-2.12,91,95,2.85,RU,1741120260
467,richmond hill,43.8711,-79.4372,5.68,75,100,2.86,CA,1741120165
468,khromtau,50.2503,58.4347,-11.03,96,100,4.7,KZ,1741120262
469,cockburn town,21.4612,-71.1419,24.51,78,70,10.47,TC,1741120264
470,xanxere,-26.8769,-52.4042,29.49,33,0,2.58,BR,1741120265
471,gilleleje,56.122,12.3106,6.88,86,88,4.47,DK,1741120266
472,kavaratti,10.5669,72.642,27.93,78,100,2.71,IN,1741120267
473,jaicos,-7.3592,-41.1378,30.37,40,100,2.1,BR,1741120268
474,malango,-2.9627,119.9001,19.56,99,97,0.63,ID,1741120269
475,lazaro cardenas,17.9583,-102.2,27.43,61,8,3.92,MX,1741120270
476,toliara,-23.35,43.6667,25.75,87,10,0.84,MG,1741120064
477,port moresby,-9.4431,147.1797,24.68,94,20,3.09,PG,1741120273
478,nova sintra,14.8667,-24.7167,21.44,62,49,7.27,CV,1741120274
479,blacksburg,37.2296,-80.4139,15.49,36,0,6.69,US,1741120231
480,hsinchu,24.8036,120.9686,16.61,93,100,2.68,TW,1741120276
481,mahibadhoo,3.7833,72.9667,27.58,72,90,1.42,MV,1741120277
482,gorom-gorom,14.4439,-0.2361,32.44,13,44,2.86,BF,1741120278
483,mthatha,-31.5889,28.7844,18.27,90,49,1.94,ZA,1741120280
484,pauini,-7.7136,-66.9764,28.54,65,96,1.47,BR,1741120283
485,saint-francois,46.4154,3.9054,7.6,65,0,2.57,FR,1741120285
486,yurimaguas,-5.9,-76.0833,30.09,70,40,2.06,PE,1741120286
487,tres lagoas,-20.7511,-51.6783,29.3,40,100,2.61,BR,1741120287
488,yoichi,43.2039,140.7703,-3.36,65,100,1.62,JP,1741120288
489,youghal,51.95,-7.8506,6.81,84,99,6.02,IE,1741120290
490,marsh harbour,26.5412,-77.0636,21.76,66,99,9.58,BS,1741120259
491,kishtwar,33.3167,75.7667,-0.38,68,7,3.31,IN,1741120292
492,trairi,-3.2778,-39.2689,24.79,90,100,3.85,BR,1741120253
493,belalcazar,2.6547,-75.9928,18.04,86,94,1.61,CO,1741120295
494,harrismith,-28.2728,29.1295,15.97,98,56,2.45,ZA,1741120296
495,el calafate,-50.3408,-72.2768,10.59,59,28,8.41,AR,1741120297
496,island harbour,50.724,-1.2758,5.11,85,0,1.66,GB,1741120299
497,okhotsk,59.3833,143.3,-25.38,83,34,5.87,RU,1741120301
498,nuuk,64.1835,-51.7216,-12.66,72,20,2.57,GL,1741120304
499,mangai,-4.05,19.5333,23.82,76,13,0.6,CD,1741120305
500,ouargla,31.9493,5.325,17.04,63,40,5.14,DZ,1741120306
501,tinajo,29.0788,-13.7081,16.49,67,20,2.06,ES,1741120308
502,ad dawadimi,24.5077,44.3924,14.64,42,91,4.13,SA,1741120309
503,vrnjacka banja,43.6167,20.9,5.03,69,0,1.02,RS,1741120310
504,luderitz,-26.6481,15.1594,18.54,80,0,4.5,NA,1741120311
505,campoverde,-8.4753,-74.8058,30.83,88,76,0.54,PE,1741120314
506,salalah,17.0151,54.0924,26.05,69,20,5.14,OM,1741120315
507,kruisfontein,-34.0033,24.7314,20.12,85,10,1.28,ZA,1741120316
508,kirakira,-10.4544,161.9205,27.58,78,89,1.1,SB,1741120317
509,charters towers,-20.1,146.2667,22.4,92,0,3.33,AU,1741120318
510,merano,46.6682,11.1595,6.64,65,0,2.43,IT,1741120319
511,bengkulu,-3.8004,102.2655,24.53,88,100,1.85,ID,1741120321
512,uzhur,55.3036,89.8339,-12.5,96,100,1.83,RU,1741120322
513,buckeye,33.3703,-112.5838,21.49,25,0,2.06,US,1741120323
514,beloyarskiy,63.7119,66.6722,-9.07,96,100,2.04,RU,1741120324
515,casablanca,33.5928,-7.6192,16.12,82,66,2.24,MA,1741120325
516,hanceville,34.0607,-86.7675,24.53,58,98,8.86,US,1741120326
517,aksu,41.1231,80.2644,1.71,79,21,3.36,CN,1741120328
518,rikaze,29.25,88.8833,-0.6,36,0,2.37,CN,1741120329
519,acaponeta,22.4964,-105.3594,34.34,13,92,4.27,MX,1741120330
520,uray,60.1247,64.7758,-8.31,97,100,2.84,RU,1741120332
521,north manchester,41.0006,-85.7686,13.45,64,100,5.48,US,1741120333
522,amga,60.8953,131.9608,-27.64,98,100,1.61,RU,1741120334
523,mombetsu,44.3525,143.3525,-9.66,84,99,1.47,JP,1741120054
524,kilis,36.7161,37.115,8.24,49,80,6.85,TR,1741120337
525,ironwood,46.4547,-90.171,-0.55,100,100,3.6,US,1741120338
526,luis correia,-2.8792,-41.6669,28.0,78,75,7.72,BR,1741120339
527,yarkovo,57.4028,67.0786,-15.64,97,100,2.32,RU,1741120341
528,altamont,42.2068,-121.7372,6.91,81,75,5.14,US,1741120342
529,port douglas,-16.4833,145.4667,25.24,82,9,1.49,AU,1741120343
530,sabha,27.0377,14.4283,16.73,33,100,4.14,LY,1741120344
531,hobyo,5.3505,48.5268,25.9,76,46,7.59,SO,1741120345
532,abilene,32.4487,-99.7331,15.12,49,100,18.01,US,1741120080
533,alesund,62.4723,6.1549,8.52,86,75,11.32,NO,1741120347
534,northam,51.0333,-4.2167,3.78,89,3,1.34,GB,1741120349
535,laela,-8.5667,32.05,16.78,90,4,1.53,TZ,1741120350
536,laguna,38.421,-121.4238,13.69,69,75,3.6,US,1741120351
537,belmonte,-15.8631,-38.8828,25.65,79,18,3.29,BR,1741120352
538,calipatria,33.1256,-115.5142,20.12,26,7,1.83,US,1741120353
539,yazd,31.8972,54.3675,10.06,17,75,2.06,IR,1741120356
540,qarqaraly,49.4058,75.4742,-19.43,98,37,3.77,KZ,1741120358
541,marau,-28.4492,-52.2,31.97,24,0,2.7,BR,1741120359
542,sinabang,2.4803,96.3801,25.62,88,100,3.7,ID,1741120360
543,vimperk,49.0586,13.7829,4.6,34,56,1.12,CZ,1741120362
544,tamandare,-8.7597,-35.1047,26.51,72,22,3.75,BR,1741120363
545,chinde,26.8212,87.7095,16.19,41,0,2.85,NP,1741120364
546,akureyri,65.6835,-18.0878,0.96,47,75,5.14,IS,1741120365
547,campbellton,48.0075,-66.6727,-6.75,88,100,3.23,CA,1741120366
548,sioux center,43.0797,-96.1756,0.01,98,100,6.71,US,1741120367
549,vilyuysk,63.7553,121.6247,-39.56,100,55,1.91,RU,1741120368
550,linhares,-19.3911,-40.0722,27.07,73,16,3.22,BR,1741120191
551,thinadhoo,0.5333,72.9333,27.88,71,76,4.31,MV,1741120371
552,iskushuban,10.2837,50.23,21.89,83,21,3.24,SO,1741120372
553,cabo san lucas,22.8909,-109.9124,23.17,53,40,4.02,MX,1741120176
554,touros,-5.1989,-35.4608,27.02,74,83,5.12,BR,1741120375
555,rivera,-30.9053,-55.5508,38.5,99,9,3.3,UY,1741120376
556,i-n-salah,27.1935,2.4607,24.93,25,100,4.56,DZ,1741120378
557,aqaba,29.5267,35.0078,17.92,45,53,5.66,JO,1741120164
558,vazante,-17.9869,-46.9078,25.7,59,100,1.68,BR,1741120380
559,hatillo,18.4863,-66.8254,26.73,79,46,4.92,PR,1741120234
560,ko pha ngan,9.7578,100.0291,24.24,71,99,2.13,TH,1741120382
561,hilo,19.7297,-155.09,23.4,92,100,1.34,US,1741120206
562,vitoria da conquista,-14.8661,-40.8394,21.87,69,63,3.77,BR,1741120384
563,khorugh,37.4897,71.553,-27.41,61,5,1.12,TJ,1741120385
